# 
# Header Description:
# 
# Version: v3.0.0.16 Platform: null Manufacturer: Google Model: Pixel 5
# 
# Raw,utcTimeMillis,TimeNanos,LeapSecond,TimeUncertaintyNanos,FullBiasNanos,BiasNanos,BiasUncertaintyNanos,DriftNanosPerSecond,DriftUncertaintyNanosPerSecond,HardwareClockDiscontinuityCount,Svid,TimeOffsetNanos,State,ReceivedSvTimeNanos,ReceivedSvTimeUncertaintyNanos,Cn0DbHz,PseudorangeRateMetersPerSecond,PseudorangeRateUncertaintyMetersPerSecond,AccumulatedDeltaRangeState,AccumulatedDeltaRangeMeters,AccumulatedDeltaRangeUncertaintyMeters,CarrierFrequencyHz,CarrierCycles,CarrierPhase,CarrierPhaseUncertainty,MultipathIndicator,SnrInDb,ConstellationType,AgcDb,BasebandCn0DbHz,FullInterSignalBiasNanos,FullInterSignalBiasUncertaintyNanos,SatelliteInterSignalBiasNanos,SatelliteInterSignalBiasUncertaintyNanos,CodeType,ChipsetElapsedRealtimeNanos
# 
# UncalAccel,utcTimeMillis,elapsedRealtimeNanos,UncalAccelXMps2,UncalAccelYMps2,UncalAccelZMps2,BiasXMps2,BiasYMps2,BiasZMps2
# 
# UncalGyro,utcTimeMillis,elapsedRealtimeNanos,UncalGyroXRadPerSec,UncalGyroYRadPerSec,UncalGyroZRadPerSec,DriftXRadPerSec,DriftYRadPerSec,DriftZRadPerSec
# 
# UncalMag,utcTimeMillis,elapsedRealtimeNanos,UncalMagXMicroT,UncalMagYMicroT,UncalMagZMicroT,BiasXMicroT,BiasYMicroT,BiasZMicroT
# 
# OrientationDeg,utcTimeMillis,elapsedRealtimeNanos,yawDeg,rollDeg,pitchDeg
# 
# Fix,Provider,LatitudeDegrees,LongitudeDegrees,AltitudeMeters,SpeedMps,AccuracyMeters,BearingDegrees,UnixTimeMillis,SpeedAccuracyMps,BearingAccuracyDegrees,elapsedRealtimeNanos,VerticalAccuracyMeters
# 
# Nav,Svid,Type,Status,MessageId,Sub-messageId,Data(Bytes)
# 
# Status,UnixTimeMillis,SignalCount,SignalIndex,ConstellationType,Svid,CarrierFrequencyHz,Cn0DbHz,AzimuthDegrees,ElevationDegrees,UsedInFix,HasAlmanacData,HasEphemerisData,BasebandCn0DbHz
# 
Raw,1638904972449,3498506000000,18,,-1322936691943239371,-0.24013900756835938,23.889046133263037,31.107599724455085,9.51683231013324,160,1,0.0,16399,242590372779171,7,40.9,581.2072143554688,0.038700003176927567,25,67567.22531358729,0.0010085564157135064,1.57542003E9,,,,0,,1,,,,,,,C,0
Raw,1638904972449,3498506000000,18,,-1322936691943239371,-0.24013900756835938,23.889046133263037,31.107599724455085,9.51683231013324,160,3,0.0,16399,242590381436130,10,38.0,-146.49855041503906,0.023900002241134644,25,-17775.498871428088,0.0015223494237726067,1.57542003E9,,,,0,,1,,,,,,,C,0
Raw,1638904972449,3498506000000,18,,-1322936691943239371,-0.24013900756835938,23.889046133263037,31.107599724455085,9.51683231013324,160,4,0.0,16399,242590376725276,11,36.5,-284.851806640625,0.047200001776218414,25,-33363.976326182026,0.001655554942969963,1.57542003E9,,,,0,,1,,,,,,,C,0
Raw,1638904972449,3498506000000,18,,-1322936691943239371,-0.24013900756835938,23.889046133263037,31.107599724455085,9.51683231013324,160,9,0.0,16399,242590367691072,16,32.5,-471.0762939453125,0.0414000004529953,25,-54877.841508464975,0.00281634630106073,1.57542003E9,,,,0,,1,,,,,,,C,0
Raw,1638904972449,3498506000000,18,,-1322936691943239371,-0.24013900756835938,23.889046133263037,31.107599724455085,9.51683231013324,160,16,0.0,16399,242590373361745,7,40.4,-579.5030517578125,0.04020000249147415,25,-68071.00166527505,0.0010085564157135064,1.57542003E9,,,,0,,1,,,,,,,C,0
Raw,1638904972449,3498506000000,18,,-1322936691943239371,-0.24013900756835938,23.889046133263037,31.107599724455085,9.51683231013324,160,21,0.0,16399,242590369115449,8,40.0,526.2977294921875,0.034700002521276474,25,61415.047431536266,0.001160791358090767,1.57542003E9,,,,0,,1,,,,,,,C,0
Raw,1638904972449,3498506000000,18,,-1322936691943239371,-0.24013900756835938,23.889046133263037,31.107599724455085,9.51683231013324,160,26,0.0,16399,242590376846389,12,36.1,-95.42320251464844,0.04800000041723251,25,-11954.49111005743,0.001807789796734829,1.57542003E9,,,,0,,1,,,,,,,C,0
Raw,1638904972449,3498506000000,18,,-1322936691943239371,-0.24013900756835938,23.889046133263037,31.107599724455085,9.51683231013324,160,31,0.0,16399,242590372963368,31,27.0,629.7483520507812,0.684499979019165,16,0.0,0.0,1.57542003E9,,,,0,,1,,,,,,,C,0
Raw,1638904972449,3498506000000,18,,-1322936691943239371,-0.24013900756835938,23.889046133263037,31.107599724455085,9.51683231013324,160,2,0.0,49359,80572383314900,27,28.7,-35.34355926513672,0.6210000514984131,16,0.0,0.0,1.59975002E9,,,,0,,3,,,,,,,C,0
Raw,1638904972449,3498506000000,18,,-1322936691943239371,-0.24013900756835938,23.889046133263037,31.107599724455085,9.51683231013324,160,18,0.0,49359,80572371953123,16,33.0,411.7422790527344,0.04739999771118164,25,46802.35181472357,0.00277253881595763,1.60031245E9,,,,0,,3,,,,,,,C,0
Raw,1638904972449,3498506000000,18,,-1322936691943239371,-0.24013900756835938,23.889046133263037,31.107599724455085,9.51683231013324,160,13,0.0,49359,80572381785995,24,29.4,-546.6522216796875,0.09399999678134918,25,-62870.970205707985,0.18726787319550683,1.60087501E9,,,,0,,3,,,,,,,C,0
Raw,1638904972449,3498506000000,18,,-1322936691943239371,-0.24013900756835938,23.889046133263037,31.107599724455085,9.51683231013324,160,12,0.0,49359,80572383719718,40,25.1,211.07972717285156,0.7910000085830688,16,0.0,0.0,1.60143744E9,,,,0,,3,,,,,,,C,0
Raw,1638904972449,3498506000000,18,,-1322936691943239371,-0.24013900756835938,23.889046133263037,31.107599724455085,9.51683231013324,160,1,0.0,49359,80572373030053,17,32.1,491.7388916015625,0.05180000141263008,25,55478.908499718214,0.002955716504244618,1.60256256E9,,,,0,,3,,,,,,,C,0
Raw,1638904972449,3498506000000,18,,-1322936691943239371,-0.24013900756835938,23.889046133263037,31.107599724455085,9.51683231013324,160,3,0.0,49359,80572377401035,13,35.8,-492.54931640625,0.05040000379085541,25,-57423.362108048816,0.002036211542260784,1.60481254E9,,,,0,,3,,,,,,,C,0
Raw,1638904972449,3498506000000,18,,-1322936691943239371,-0.24013900756835938,23.889046133263037,31.107599724455085,9.51683231013324,160,4,0.0,23567,242590360296221,92,19.9,314.241455078125,2.015500068664551,16,0.0,0.0,1.57542003E9,,,,0,,6,,,,,,,C,0
Raw,1638904972449,3498506000000,18,,-1322936691943239371,-0.24013900756835938,23.889046133263037,31.107599724455085,9.51683231013324,160,5,0.0,23567,242590364677108,9,40.5,-279.779052734375,0.030800001695752144,25,-32581.26785178793,0.0028924638165555576,1.57542003E9,,,,0,,6,,,,,,,C,0
Raw,1638904972449,3498506000000,18,,-1322936691943239371,-0.24013900756835938,23.889046133263037,31.107599724455085,9.51683231013324,160,9,0.0,23567,242590375473618,21,31.4,21.8125057220459,0.10410000383853912,27,82.76347362150467,0.011874324619302384,1.57542003E9,,,,0,,6,,,,,,,C,0
Raw,1638904972449,3498506000000,18,,-1322936691943239371,-0.24013900756835938,23.889046133263037,31.107599724455085,9.51683231013324,160,24,0.0,23567,242590363041270,17,33.1,-509.64593505859375,0.07580000162124634,25,-59434.52201815304,0.006565131413727744,1.57542003E9,,,,0,,6,,,,,,,C,0
Raw,1638904972449,3498506000000,18,,-1322936691943239371,-0.24013900756835938,23.889046133263037,31.107599724455085,9.51683231013324,160,31,0.0,23567,242590367023373,35,27.2,-112.5111312866211,0.6799999475479126,16,0.0,0.0,1.57542003E9,,,,0,,6,,,,,,,C,0
Raw,1638904972449,3498506000000,18,,-1322936691943239371,-0.24013900756835938,23.889046133263037,31.107599724455085,9.51683231013324,160,36,0.0,23567,242590361289969,11,38.0,470.1699523925781,0.06370000541210175,25,54235.91296133038,0.003596550258902148,1.57542003E9,,,,0,,6,,,,,,,C,0
Raw,1638904972449,3498506000000,18,,-1322936691943239371,-0.24013900756835938,23.889046133263037,31.107599724455085,9.51683231013324,160,1,0.0,81935,242590372787001,4,33.8,581.1961669921875,0.06400000303983688,25,66159.95500821163,0.0037714549693657518,1.17645005E9,,,,0,,1,,,,,,,X,0
Raw,1638904972449,3498506000000,18,,-1322936691943239371,-0.24013900756835938,23.889046133263037,31.107599724455085,9.51683231013324,160,3,0.0,81935,242590381443957,3,35.8,-146.5022430419922,0.04430000111460686,25,-17446.585373183167,0.0027776256465907277,1.17645005E9,,,,0,,1,,,,,,,X,0
Raw,1638904972449,3498506000000,18,,-1322936691943239371,-0.24013900756835938,23.889046133263037,31.107599724455085,9.51683231013324,160,4,0.0,81935,242590376733137,5,32.3,-284.864990234375,0.07500000298023224,25,-32773.42463120685,0.004332076888121183,1.17645005E9,,,,0,,1,,,,,,,X,0
Raw,1638904972449,3498506000000,18,,-1322936691943239371,-0.24013900756835938,23.889046133263037,31.107599724455085,9.51683231013324,160,9,0.0,81935,242590367698922,7,29.0,-471.0660400390625,0.10060000419616699,25,-53908.952040273674,0.25482803839368795,1.17645005E9,,,,0,,1,,,,,,,X,0
Raw,1638904972449,3498506000000,18,,-1322936691943239371,-0.24013900756835938,23.889046133263037,31.107599724455085,9.51683231013324,160,26,0.0,81935,242590376854250,5,31.9,-95.40261840820312,0.07500000298023224,25,-11724.845354318604,0.004332076888121183,1.17645005E9,,,,0,,1,,,,,,,X,0
Raw,1638904972449,3498506000000,18,,-1322936691943239371,-0.24013900756835938,23.889046133263037,31.107599724455085,9.51683231013324,160,1,0.0,81935,242590358064896,9,25.9,370.99365234375,0.08740000426769257,25,41964.62734590911,0.25482803839368795,1.17645005E9,,,,0,,6,,,,,,,X,0
Raw,1638904972449,3498506000000,18,,-1322936691943239371,-0.24013900756835938,23.889046133263037,31.107599724455085,9.51683231013324,160,5,0.0,81935,242590364683470,3,37.9,-279.7793273925781,0.04650000110268593,25,-32037.144964154162,0.004816249813242585,1.17645005E9,,,,0,,6,,,,,,,X,0
Raw,1638904972449,3498506000000,18,,-1322936691943239371,-0.24013900756835938,23.889046133263037,31.107599724455085,9.51683231013324,160,9,0.0,81935,242590375480019,3,37.3,21.840532302856445,0.0640999972820282,25,2350.1722273128844,0.005300423213018197,1.17645005E9,,,,0,,6,,,,,,,X,0
Raw,1638904972449,3498506000000,18,,-1322936691943239371,-0.24013900756835938,23.889046133263037,31.107599724455085,9.51683231013324,160,24,0.0,81935,242590363047629,3,36.7,-509.6690979003906,0.04610000178217888,25,-58534.83298603426,0.005300423213018197,1.17645005E9,,,,0,,6,,,,,,,X,0
Raw,1638904972449,3498506000000,18,,-1322936691943239371,-0.24013900756835938,23.889046133263037,31.107599724455085,9.51683231013324,160,31,0.0,81935,242590367029767,4,35.4,-112.67008209228516,0.05470000207424164,25,-13484.882517982825,0.007007771017854082,1.17645005E9,,,,0,,6,,,,,,,X,0
Raw,1638904972449,3498506000000,18,,-1322936691943239371,-0.24013900756835938,23.889046133263037,31.107599724455085,9.51683231013324,160,36,0.0,81935,242590361296317,14,21.9,470.39984130859375,1.0929999351501465,16,0.0,0.0,1.17645005E9,,,,0,,6,,,,,,,X,0
Raw,1638904973449,3499506000000,18,,-1322936691943239342,-0.6746129989624023,24.464339730911888,29.962446003504894,9.519334257163054,160,1,0.0,16399,242591372777225,7,41.0,580.69921875,0.038700003176927567,25,68147.88992850579,0.0010085564157135064,1.57542003E9,,,,0,,1,,,,,,,C,1014707913
Raw,1638904973449,3499506000000,18,,-1322936691943239342,-0.6746129989624023,24.464339730911888,29.962446003504894,9.519334257163054,160,3,0.0,16399,242591381436618,10,38.3,-146.92677307128906,0.023900002241134644,25,-17922.513663278074,0.0015223494237726067,1.57542003E9,,,,0,,1,,,,,,,C,1014707913
Raw,1638904973449,3499506000000,18,,-1322936691943239342,-0.6746129989624023,24.464339730911888,29.962446003504894,9.519334257163054,160,4,0.0,16399,242591376726227,11,37.2,-285.3957214355469,0.047200001776218414,25,-33649.38543932267,0.001655554942969963,1.57542003E9,,,,0,,1,,,,,,,C,1014707913
Raw,1638904973449,3499506000000,18,,-1322936691943239342,-0.6746129989624023,24.464339730911888,29.962446003504894,9.519334257163054,160,9,0.0,16399,242591367692653,14,33.5,-471.59417724609375,0.0364999994635582,25,-55349.4611107458,0.002397700231676362,1.57542003E9,,,,0,,1,,,,,,,C,1014707913
Raw,1638904973449,3499506000000,18,,-1322936691943239342,-0.6746129989624023,24.464339730911888,29.962446003504894,9.519334257163054,160,16,0.0,16399,242591373363694,7,40.4,-580.0098266601562,0.04020000249147415,25,-68651.04672241266,0.0010085564157135064,1.57542003E9,,,,0,,1,,,,,,,C,1014707913
Raw,1638904973449,3499506000000,18,,-1322936691943239342,-0.6746129989624023,24.464339730911888,29.962446003504894,9.519334257163054,160,21,0.0,16399,242591369113701,8,40.1,525.7515869140625,0.034700002521276474,25,61940.779110438096,0.001160791358090767,1.57542003E9,,,,0,,1,,,,,,,C,1014707913
Raw,1638904973449,3499506000000,18,,-1322936691943239342,-0.6746129989624023,24.464339730911888,29.962446003504894,9.519334257163054,160,26,0.0,16399,242591376846701,14,33.4,-95.86763763427734,0.05000000074505806,25,-12050.421683242132,0.002397700231676362,1.57542003E9,,,,0,,1,,,,,,,C,1014707913
Raw,1638904973449,3499506000000,18,,-1322936691943239342,-0.6746129989624023,24.464339730911888,29.962446003504894,9.519334257163054,160,31,0.0,16399,242591372961236,53,22.8,629.3201904296875,1.0145000219345093,16,0.0,0.0,1.57542003E9,,,,0,,1,,,,,,,C,1014707913
Raw,1638904973449,3499506000000,18,,-1322936691943239342,-0.6746129989624023,24.464339730911888,29.962446003504894,9.519334257163054,160,2,0.0,49359,80573383314934,27,28.1,-35.71835708618164,0.6210000514984131,16,0.0,0.0,1.59975002E9,,,,0,,3,,,,,,,C,1014707913
Raw,1638904973449,3499506000000,18,,-1322936691943239342,-0.6746129989624023,24.464339730911888,29.962446003504894,9.519334257163054,160,18,0.0,49359,80573371951758,17,32.1,411.3150634765625,0.04879999905824661,25,47213.58130581725,0.002959872375920247,1.60031245E9,,,,0,,3,,,,,,,C,1014707913
Raw,1638904973449,3499506000000,18,,-1322936691943239342,-0.6746129989624023,24.464339730911888,29.962446003504894,9.519334257163054,160,13,0.0,49359,80573381787766,27,28.8,-547.4307861328125,0.6180000305175781,16,0.0,0.0,1.60087501E9,,,,0,,3,,,,,,,C,1014707913
Raw,1638904973449,3499506000000,18,,-1322936691943239342,-0.6746129989624023,24.464339730911888,29.962446003504894,9.519334257163054,160,12,0.0,49359,80573383718953,40,25.6,210.87380981445312,0.7910000085830688,16,0.0,0.0,1.60143744E9,,,,0,,3,,,,,,,C,1014707913
Raw,1638904973449,3499506000000,18,,-1322936691943239342,-0.6746129989624023,24.464339730911888,29.962446003504894,9.519334257163054,160,1,0.0,49359,80573373028510,17,32.2,491.2203369140625,0.05180000141263008,25,55970.085972290915,0.002955716504244618,1.60256256E9,,,,0,,3,,,,,,,C,1014707913
Raw,1638904973449,3499506000000,18,,-1322936691943239342,-0.6746129989624023,24.464339730911888,29.962446003504894,9.519334257163054,160,3,0.0,49359,80573377402643,11,37.4,-493.095947265625,0.0487000048160553,25,-57916.468547755096,0.0016252330722257222,1.60481254E9,,,,0,,3,,,,,,,C,1014707913
Raw,1638904973449,3499506000000,18,,-1322936691943239342,-0.6746129989624023,24.464339730911888,29.962446003504894,9.519334257163054,160,4,0.0,23567,242591360295154,53,24.4,313.66107177734375,0.8854999542236328,16,0.0,0.0,1.57542003E9,,,,0,,6,,,,,,,C,1014707913
Raw,1638904973449,3499506000000,18,,-1322936691943239342,-0.6746129989624023,24.464339730911888,29.962446003504894,9.519334257163054,160,5,0.0,23567,242591364678040,7,41.9,-280.3625183105469,0.02970000170171261,25,-32861.62167544343,0.0021883771969841777,1.57542003E9,,,,0,,6,,,,,,,C,1014707913
Raw,1638904973449,3499506000000,18,,-1322936691943239342,-0.6746129989624023,24.464339730911888,29.962446003504894,9.519334257163054,160,9,0.0,23567,242591375473538,21,30.9,21.278919219970703,0.10410000383853912,21,103.91769042910002,0.011874324619302384,1.57542003E9,,,,0,,6,,,,,,,C,1014707913
Raw,1638904973449,3499506000000,18,,-1322936691943239342,-0.6746129989624023,24.464339730911888,29.962446003504894,9.519334257163054,160,24,0.0,23567,242591363042946,17,33.6,-510.198974609375,0.07580000162124634,25,-59944.741600859306,0.006565131413727744,1.57542003E9,,,,0,,6,,,,,,,C,1014707913
Raw,1638904973449,3499506000000,18,,-1322936691943239342,-0.6746129989624023,24.464339730911888,29.962446003504894,9.519334257163054,160,31,0.0,23567,242591367023812,53,23.9,-113.19619750976562,0.9299999475479126,16,0.0,0.0,1.57542003E9,,,,0,,6,,,,,,,C,1014707913
Raw,1638904973449,3499506000000,18,,-1322936691943239342,-0.6746129989624023,24.464339730911888,29.962446003504894,9.519334257163054,160,36,0.0,23567,242591361288402,11,38.1,469.63037109375,0.06370000541210175,25,54705.51531786922,0.003596550258902148,1.57542003E9,,,,0,,6,,,,,,,C,1014707913
Raw,1638904973449,3499506000000,18,,-1322936691943239342,-0.6746129989624023,24.464339730911888,29.962446003504894,9.519334257163054,160,1,0.0,81935,242591372785063,4,35.3,580.6649780273438,0.06220000237226486,25,66740.61863766162,0.0032108332879374254,1.17645005E9,,,,0,,1,,,,,,,X,1014707913
Raw,1638904973449,3499506000000,18,,-1322936691943239342,-0.6746129989624023,24.464339730911888,29.962446003504894,9.519334257163054,160,3,0.0,81935,242591381444447,3,37.3,-146.99339294433594,0.04309999942779541,25,-17593.586881591316,0.0024208662868967453,1.17645005E9,,,,0,,1,,,,,,,X,1014707913
Raw,1638904973449,3499506000000,18,,-1322936691943239342,-0.6746129989624023,24.464339730911888,29.962446003504894,9.519334257163054,160,4,0.0,81935,242591376734091,6,30.9,-285.4175720214844,0.08110000193119049,25,-33058.82988089092,0.007288081858568245,1.17645005E9,,,,0,,1,,,,,,,X,1014707913
Raw,1638904973449,3499506000000,18,,-1322936691943239342,-0.6746129989624023,24.464339730911888,29.962446003504894,9.519334257163054,160,9,0.0,81935,242591367700498,6,29.8,-471.6582946777344,0.07999999821186066,25,-54380.583733812426,0.25482803839368795,1.17645005E9,,,,0,,1,,,,,,,X,1014707913
Raw,1638904973449,3499506000000,18,,-1322936691943239342,-0.6746129989624023,24.464339730911888,29.962446003504894,9.519334257163054,160,26,0.0,81935,242591376854574,7,29.1,-95.9732437133789,0.11410000920295715,25,-11820.756247371908,0.25482803839368795,1.17645005E9,,,,0,,1,,,,,,,X,1014707913
Raw,1638904973449,3499506000000,18,,-1322936691943239342,-0.6746129989624023,24.464339730911888,29.962446003504894,9.519334257163054,160,1,0.0,81935,242591358063654,10,25.5,370.3714294433594,0.1177000030875206,25,42335.011091745386,0.25482803839368795,1.17645005E9,,,,0,,6,,,,,,,X,1014707913
Raw,1638904973449,3499506000000,18,,-1322936691943239342,-0.6746129989624023,24.464339730911888,29.962446003504894,9.519334257163054,160,5,0.0,81935,242591364684406,3,38.3,-280.3659973144531,0.04650000110268593,25,-32317.476675198464,0.004816249813242585,1.17645005E9,,,,0,,6,,,,,,,X,1014707913
Raw,1638904973449,3499506000000,18,,-1322936691943239342,-0.6746129989624023,24.464339730911888,29.962446003504894,9.519334257163054,160,9,0.0,81935,242591375479948,3,36.8,21.240646362304688,0.0640999972820282,25,2371.425645510462,0.005300423213018197,1.17645005E9,,,,0,,6,,,,,,,X,1014707913
Raw,1638904973449,3499506000000,18,,-1322936691943239342,-0.6746129989624023,24.464339730911888,29.962446003504894,9.519334257163054,160,24,0.0,81935,242591363049332,3,37.3,-510.2207336425781,0.04610000178217888,25,-59045.03428727896,0.005300423213018197,1.17645005E9,,,,0,,6,,,,,,,X,1014707913
Raw,1638904973449,3499506000000,18,,-1322936691943239342,-0.6746129989624023,24.464339730911888,29.962446003504894,9.519334257163054,160,31,0.0,81935,242591367030145,3,35.7,-113.19790649414062,0.053300004452466965,25,-13598.066570843815,0.006064907453507972,1.17645005E9,,,,0,,6,,,,,,,X,1014707913
Raw,1638904973449,3499506000000,18,,-1322936691943239342,-0.6746129989624023,24.464339730911888,29.962446003504894,9.519334257163054,160,36,0.0,81935,242591361294749,11,24.2,469.6225891113281,0.8629999756813049,16,0.0,0.0,1.17645005E9,,,,0,,6,,,,,,,X,1014707913
Raw,1638904974449,3500506000000,18,,-1322936691943239314,-0.1835927963256836,23.627198970643803,28.11719565143675,9.525570833325736,160,1,0.0,16399,242592372775294,6,41.5,581.1207885742188,0.03830000385642052,25,68728.89220506935,9.324389888310735E-4,1.57542003E9,,,,0,,1,,,,,,,C,1996279313
Raw,1638904974449,3500506000000,18,,-1322936691943239314,-0.1835927963256836,23.627198970643803,28.11719565143675,9.525570833325736,160,3,0.0,16399,242592381437103,9,39.0,-146.44656372070312,0.02330000139772892,25,-18069.114917727038,0.0013320557236479321,1.57542003E9,,,,0,,1,,,,,,,C,1996279313
Raw,1638904974449,3500506000000,18,,-1322936691943239314,-0.1835927963256836,23.627198970643803,28.11719565143675,9.525570833325736,160,4,0.0,16399,242592376727171,11,37.2,-284.98187255859375,0.047200001776218414,25,-33934.478151808195,0.001655554942969963,1.57542003E9,,,,0,,1,,,,,,,C,1996279313
Raw,1638904974449,3500506000000,18,,-1322936691943239314,-0.1835927963256836,23.627198970643803,28.11719565143675,9.525570833325736,160,9,0.0,16399,242592367694207,14,33.4,-471.2166442871094,0.0364999994635582,25,-55820.77594767224,0.002397700231676362,1.57542003E9,,,,0,,1,,,,,,,C,1996279313
Raw,1638904974449,3500506000000,18,,-1322936691943239314,-0.1835927963256836,23.627198970643803,28.11719565143675,9.525570833325736,160,16,0.0,16399,242592373365629,8,40.0,-579.5730590820312,0.04070000350475311,25,-69230.74447339858,0.001160791358090767,1.57542003E9,,,,0,,1,,,,,,,C,1996279313
Raw,1638904974449,3500506000000,18,,-1322936691943239314,-0.1835927963256836,23.627198970643803,28.11719565143675,9.525570833325736,160,21,0.0,16399,242592369111929,7,40.5,526.1394653320312,0.03420000150799751,25,62466.81542395309,0.0010085564157135064,1.57542003E9,,,,0,,1,,,,,,,C,1996279313
Raw,1638904974449,3500506000000,18,,-1322936691943239314,-0.1835927963256836,23.627198970643803,28.11719565143675,9.525570833325736,160,26,0.0,16399,242592376847009,13,35.0,-95.36268615722656,0.048900000751018524,25,-12145.947990441175,0.002074201012354331,1.57542003E9,,,,0,,1,,,,,,,C,1996279313
Raw,1638904974449,3500506000000,18,,-1322936691943239314,-0.1835927963256836,23.627198970643803,28.11719565143675,9.525570833325736,160,31,0.0,16399,242592372959171,35,26.2,629.1204223632812,0.7444999814033508,16,0.0,0.0,1.57542003E9,,,,0,,1,,,,,,,C,1996279313
Raw,1638904974449,3500506000000,18,,-1322936691943239314,-0.1835927963256836,23.627198970643803,28.11719565143675,9.525570833325736,160,2,0.0,49359,80574383315036,27,28.9,-34.856319427490234,0.6210000514984131,16,0.0,0.0,1.59975002E9,,,,0,,3,,,,,,,C,1996279313
Raw,1638904974449,3500506000000,18,,-1322936691943239314,-0.1835927963256836,23.627198970643803,28.11719565143675,9.525570833325736,160,18,0.0,49359,80574371950402,19,31.4,411.7772216796875,0.05869999900460243,25,47625.21686355576,0.0031846731363860867,1.60031245E9,,,,0,,3,,,,,,,C,1996279313
Raw,1638904974449,3500506000000,18,,-1322936691943239314,-0.1835927963256836,23.627198970643803,28.11719565143675,9.525570833325736,160,13,0.0,49359,80574381789535,31,27.5,-546.4382934570312,0.6679999828338623,16,0.0,0.0,1.60087501E9,,,,0,,3,,,,,,,C,1996279313
Raw,1638904974449,3500506000000,18,,-1322936691943239314,-0.1835927963256836,23.627198970643803,28.11719565143675,9.525570833325736,160,12,0.0,49359,80574383718133,35,26.5,210.7240447998047,0.7310000061988831,16,0.0,0.0,1.60143744E9,,,,0,,3,,,,,,,C,1996279313
Raw,1638904974449,3500506000000,18,,-1322936691943239314,-0.1835927963256836,23.627198970643803,28.11719565143675,9.525570833325736,160,1,0.0,49359,80574373026789,17,32.1,491.6625061035156,0.05180000141263008,25,56461.61759433081,0.002955716504244618,1.60256256E9,,,,0,,3,,,,,,,C,1996279313
Raw,1638904974449,3500506000000,18,,-1322936691943239314,-0.1835927963256836,23.627198970643803,28.11719565143675,9.525570833325736,160,3,0.0,49359,80574377404317,12,36.1,-492.7013244628906,0.0495000034570694,25,-58409.270048255705,0.0017746797095208008,1.60481254E9,,,,0,,3,,,,,,,C,1996279313
Raw,1638904974449,3500506000000,18,,-1322936691943239314,-0.1835927963256836,23.627198970643803,28.11719565143675,9.525570833325736,160,1,0.0,23567,242592358055885,159,16.2,371.18682861328125,5.358500003814697,16,0.0,0.0,1.57542003E9,,,,0,,6,,,,,,,C,1996279313
Raw,1638904974449,3500506000000,18,,-1322936691943239314,-0.1835927963256836,23.627198970643803,28.11719565143675,9.525570833325736,160,4,0.0,23567,242592360294121,46,24.8,314.0987243652344,0.8854999542236328,16,0.0,0.0,1.57542003E9,,,,0,,6,,,,,,,C,1996279313
Raw,1638904974449,3500506000000,18,,-1322936691943239314,-0.1835927963256836,23.627198970643803,28.11719565143675,9.525570833325736,160,5,0.0,23567,242592364678977,8,41.3,-279.9344482421875,0.03020000085234642,25,-33141.65274192107,0.0025499350854412276,1.57542003E9,,,,0,,6,,,,,,,C,1996279313
Raw,1638904974449,3500506000000,18,,-1322936691943239314,-0.1835927963256836,23.627198970643803,28.11719565143675,9.525570833325736,160,9,0.0,23567,242592375473482,27,29.2,21.683963775634766,0.6200000047683716,16,0.0,0.0,1.57542003E9,,,,0,,6,,,,,,,C,1996279313
Raw,1638904974449,3500506000000,18,,-1322936691943239314,-0.1835927963256836,23.627198970643803,28.11719565143675,9.525570833325736,160,24,0.0,23567,242592363044669,19,32.2,-509.7812805175781,0.08570000529289246,25,-60454.6127467142,0.007212130206821385,1.57542003E9,,,,0,,6,,,,,,,C,1996279313
Raw,1638904974449,3500506000000,18,,-1322936691943239314,-0.1835927963256836,23.627198970643803,28.11719565143675,9.525570833325736,160,31,0.0,23567,242592367024176,53,24.2,-112.65385437011719,0.8600000143051147,16,0.0,0.0,1.57542003E9,,,,0,,6,,,,,,,C,1996279313
Raw,1638904974449,3500506000000,18,,-1322936691943239314,-0.1835927963256836,23.627198970643803,28.11719565143675,9.525570833325736,160,36,0.0,23567,242592361286835,12,37.6,470.0636901855469,0.06450000405311584,25,55175.45566294226,0.003958108324583987,1.57542003E9,,,,0,,6,,,,,,,C,1996279313
Raw,1638904974449,3500506000000,18,,-1322936691943239314,-0.1835927963256836,23.627198970643803,28.11719565143675,9.525570833325736,160,1,0.0,81935,242592372783124,4,35.0,581.1224365234375,0.06220000237226486,25,67321.629087166,0.0032108332879374254,1.17645005E9,,,,0,,1,,,,,,,X,1996279313
Raw,1638904974449,3500506000000,18,,-1322936691943239314,-0.1835927963256836,23.627198970643803,28.11719565143675,9.525570833325736,160,3,0.0,81935,242592381444939,3,37.1,-146.45181274414062,0.04309999942779541,25,-17740.197160421973,0.0024208662868967453,1.17645005E9,,,,0,,1,,,,,,,X,1996279313
Raw,1638904974449,3500506000000,18,,-1322936691943239314,-0.1835927963256836,23.627198970643803,28.11719565143675,9.525570833325736,160,4,0.0,81935,242592376735043,6,30.2,-284.98126220703125,0.09350000321865082,25,-33343.92471224733,0.25482803839368795,1.17645005E9,,,,0,,1,,,,,,,X,1996279313
Raw,1638904974449,3500506000000,18,,-1322936691943239314,-0.1835927963256836,23.627198970643803,28.11719565143675,9.525570833325736,160,9,0.0,81935,242592367702070,6,29.9,-471.1878356933594,0.07999999821186066,25,-54851.88970779311,0.25482803839368795,1.17645005E9,,,,0,,1,,,,,,,X,1996279313
Raw,1638904974449,3500506000000,18,,-1322936691943239314,-0.1835927963256836,23.627198970643803,28.11719565143675,9.525570833325736,160,26,0.0,81935,242592376854886,11,23.8,-95.56051635742188,0.9555000066757202,16,0.0,0.0,1.17645005E9,,,,0,,1,,,,,,,X,1996279313
Raw,1638904974449,3500506000000,18,,-1322936691943239314,-0.1835927963256836,23.627198970643803,28.11719565143675,9.525570833325736,160,1,0.0,81935,242592358062424,10,25.3,370.92205810546875,0.1177000030875206,25,42705.83256751866,0.25482803839368795,1.17645005E9,,,,0,,6,,,,,,,X,1996279313
Raw,1638904974449,3500506000000,18,,-1322936691943239314,-0.1835927963256836,23.627198970643803,28.11719565143675,9.525570833325736,160,4,0.0,81935,242592360300446,12,23.5,314.1010437011719,0.9314999580383301,16,0.0,0.0,1.17645005E9,,,,0,,6,,,,,,,X,1996279313
Raw,1638904974449,3500506000000,18,,-1322936691943239314,-0.1835927963256836,23.627198970643803,28.11719565143675,9.525570833325736,160,5,0.0,81935,242592364685342,3,37.5,-279.9521789550781,0.047600001096725464,25,-32597.51944454598,0.005300423213018197,1.17645005E9,,,,0,,6,,,,,,,X,1996279313
Raw,1638904974449,3500506000000,18,,-1322936691943239314,-0.1835927963256836,23.627198970643803,28.11719565143675,9.525570833325736,160,9,0.0,81935,242592375479876,3,37.9,21.683626174926758,0.06300000101327896,25,2393.005243000534,0.004816249813242585,1.17645005E9,,,,0,,6,,,,,,,X,1996279313
Raw,1638904974449,3500506000000,18,,-1322936691943239314,-0.1835927963256836,23.627198970643803,28.11719565143675,9.525570833325736,160,24,0.0,81935,242592363051033,3,37.5,-509.7509460449219,0.04610000178217888,25,-59554.904685876405,0.005300423213018197,1.17645005E9,,,,0,,6,,,,,,,X,1996279313
Raw,1638904974449,3500506000000,18,,-1322936691943239314,-0.1835927963256836,23.627198970643803,28.11719565143675,9.525570833325736,160,31,0.0,81935,242592367030520,3,36.0,-112.68516540527344,0.053300004452466965,25,-13710.890511549183,0.006064907453507972,1.17645005E9,,,,0,,6,,,,,,,X,1996279313
Raw,1638904974449,3500506000000,18,,-1322936691943239314,-0.1835927963256836,23.627198970643803,28.11719565143675,9.525570833325736,160,36,0.0,81935,242592361293186,8,26.9,470.03955078125,0.053199999034404755,27,54441.19707794728,0.25482803839368795,1.17645005E9,,,,0,,6,,,,,,,X,1996279313
Raw,1638904975449,3501506000000,18,,-1322936691943239282,-0.10139274597167969,23.96251329628285,29.373173060403,9.533343888083966,160,1,0.0,16399,242593372773348,7,41.0,581.025146484375,0.038700003176927567,25,69310.00392159776,0.0010085564157135064,1.57542003E9,,,,0,,1,,,,,,,C,2997316600
Raw,1638904975449,3501506000000,18,,-1322936691943239282,-0.10139274597167969,23.96251329628285,29.373173060403,9.533343888083966,160,3,0.0,16399,242593381437588,10,37.6,-146.51292419433594,0.023900002241134644,25,-18215.55109981751,0.0015223494237726067,1.57542003E9,,,,0,,1,,,,,,,C,2997316600
Raw,1638904975449,3501506000000,18,,-1322936691943239282,-0.10139274597167969,23.96251329628285,29.373173060403,9.533343888083966,160,4,0.0,16399,242593376728110,11,37.0,-285.09576416015625,0.047200001776218414,25,-34219.4816062903,0.001655554942969963,1.57542003E9,,,,0,,1,,,,,,,C,2997316600
Raw,1638904975449,3501506000000,18,,-1322936691943239282,-0.10139274597167969,23.96251329628285,29.373173060403,9.533343888083966,160,9,0.0,16399,242593367695769,14,34.0,-471.3548583984375,0.0364999994635582,25,-56292.02540955644,0.002397700231676362,1.57542003E9,,,,0,,1,,,,,,,C,2997316600
Raw,1638904975449,3501506000000,18,,-1322936691943239282,-0.10139274597167969,23.96251329628285,29.373173060403,9.533343888083966,160,16,0.0,16399,242593373367550,7,40.8,-579.6565551757812,0.04020000249147415,25,-69810.3244763098,0.0010085564157135064,1.57542003E9,,,,0,,1,,,,,,,C,2997316600
Raw,1638904975449,3501506000000,18,,-1322936691943239282,-0.10139274597167969,23.96251329628285,29.373173060403,9.533343888083966,160,21,0.0,16399,242593369110193,8,39.6,525.9901733398438,0.034700002521276474,25,62992.913329126335,0.001160791358090767,1.57542003E9,,,,0,,1,,,,,,,C,2997316600
Raw,1638904975449,3501506000000,18,,-1322936691943239282,-0.10139274597167969,23.96251329628285,29.373173060403,9.533343888083966,160,26,0.0,16399,242593376847378,12,36.1,-95.38358306884766,0.04800000041723251,25,-12241.27432193202,0.001807789796734829,1.57542003E9,,,,0,,1,,,,,,,C,2997316600
Raw,1638904975449,3501506000000,18,,-1322936691943239282,-0.10139274597167969,23.96251329628285,29.373173060403,9.533343888083966,160,31,0.0,16399,242593372957083,27,28.3,629.3297119140625,0.6345000267028809,16,0.0,0.0,1.57542003E9,,,,0,,1,,,,,,,C,2997316600
Raw,1638904975449,3501506000000,18,,-1322936691943239282,-0.10139274597167969,23.96251329628285,29.373173060403,9.533343888083966,160,2,0.0,49359,80575383315106,24,29.4,-35.15180206298828,0.09700000286102295,19,-4623.261186342401,0.1873995655581228,1.59975002E9,,,,0,,3,,,,,,,C,2997316600
Raw,1638904975449,3501506000000,18,,-1322936691943239282,-0.10139274597167969,23.96251329628285,29.373173060403,9.533343888083966,160,18,0.0,49359,80575371949052,19,31.7,411.7177734375,0.05869999900460243,25,48037.00516227708,0.0031846731363860867,1.60031245E9,,,,0,,3,,,,,,,C,2997316600
Raw,1638904975449,3501506000000,18,,-1322936691943239282,-0.10139274597167969,23.96251329628285,29.373173060403,9.533343888083966,160,13,0.0,49359,80575381791388,24,29.4,-546.5631713867188,0.09399999678134918,19,-64511.44283718873,0.18726787319550683,1.60087501E9,,,,0,,3,,,,,,,C,2997316600
Raw,1638904975449,3501506000000,18,,-1322936691943239282,-0.10139274597167969,23.96251329628285,29.373173060403,9.533343888083966,160,12,0.0,49359,80575383717645,70,21.6,210.91123962402344,1.0809999704360962,16,0.0,0.0,1.60143744E9,,,,0,,3,,,,,,,C,2997316600
Raw,1638904975449,3501506000000,18,,-1322936691943239282,-0.10139274597167969,23.96251329628285,29.373173060403,9.533343888083966,160,1,0.0,49359,80575373025243,17,32.0,491.5547180175781,0.05180000141263008,25,56953.26165808481,0.002955716504244618,1.60256256E9,,,,0,,3,,,,,,,C,2997316600
Raw,1638904975449,3501506000000,18,,-1322936691943239282,-0.10139274597167969,23.96251329628285,29.373173060403,9.533343888083966,160,3,0.0,49359,80575377405938,13,35.3,-492.8175048828125,0.05040000379085541,25,-58901.99174063686,0.002036211542260784,1.60481254E9,,,,0,,3,,,,,,,C,2997316600
Raw,1638904975449,3501506000000,18,,-1322936691943239282,-0.10139274597167969,23.96251329628285,29.373173060403,9.533343888083966,160,4,0.0,23567,242593360293085,61,23.0,313.7657165527344,0.9555000066757202,16,0.0,0.0,1.57542003E9,,,,0,,6,,,,,,,C,2997316600
Raw,1638904975449,3501506000000,18,,-1322936691943239282,-0.10139274597167969,23.96251329628285,29.373173060403,9.533343888083966,160,5,0.0,23567,242593364679907,8,41.1,-280.0810241699219,0.03020000085234642,25,-33421.6312061604,0.0025499350854412276,1.57542003E9,,,,0,,6,,,,,,,C,2997316600
Raw,1638904975449,3501506000000,18,,-1322936691943239282,-0.10139274597167969,23.96251329628285,29.373173060403,9.533343888083966,160,9,0.0,23567,242593375473423,24,30.3,21.55096435546875,0.13600000739097595,27,147.274860167802,0.017526047264890512,1.57542003E9,,,,0,,6,,,,,,,C,2997316600
Raw,1638904975449,3501506000000,18,,-1322936691943239282,-0.10139274597167969,23.96251329628285,29.373173060403,9.533343888083966,160,24,0.0,23567,242593363046366,19,32.1,-509.8378601074219,0.08570000529289246,25,-60964.39120457063,0.007212130206821385,1.57542003E9,,,,0,,6,,,,,,,C,2997316600
Raw,1638904975449,3501506000000,18,,-1322936691943239282,-0.10139274597167969,23.96251329628285,29.373173060403,9.533343888083966,160,31,0.0,23567,242593367024543,61,23.7,-112.73948669433594,0.9299999475479126,16,0.0,0.0,1.57542003E9,,,,0,,6,,,,,,,C,2997316600
Raw,1638904975449,3501506000000,18,,-1322936691943239282,-0.10139274597167969,23.96251329628285,29.373173060403,9.533343888083966,160,36,0.0,23567,242593361285272,11,38.2,469.94451904296875,0.06370000541210175,25,55645.48408142285,0.003596550258902148,1.57542003E9,,,,0,,6,,,,,,,C,2997316600
Raw,1638904975449,3501506000000,18,,-1322936691943239282,-0.10139274597167969,23.96251329628285,29.373173060403,9.533343888083966,160,1,0.0,81935,242593372781184,4,34.0,581.0164184570312,0.06400000303983688,25,67902.7265878022,0.0037714549693657518,1.17645005E9,,,,0,,1,,,,,,,X,2997316600
Raw,1638904975449,3501506000000,18,,-1322936691943239282,-0.10139274597167969,23.96251329628285,29.373173060403,9.533343888083966,160,3,0.0,81935,242593381445428,3,37.4,-146.50906372070312,0.041999999433755875,25,-17886.642226229982,0.0022170039651624013,1.17645005E9,,,,0,,1,,,,,,,X,2997316600
Raw,1638904975449,3501506000000,18,,-1322936691943239282,-0.10139274597167969,23.96251329628285,29.373173060403,9.533343888083966,160,4,0.0,81935,242593376735989,6,29.7,-285.0916748046875,0.09350000321865082,25,-33628.93041962496,0.25482803839368795,1.17645005E9,,,,0,,1,,,,,,,X,2997316600
Raw,1638904975449,3501506000000,18,,-1322936691943239282,-0.10139274597167969,23.96251329628285,29.373173060403,9.533343888083966,160,9,0.0,81935,242593367703635,6,30.0,-471.3871765136719,0.07999999821186066,25,-55323.14940552243,0.25482803839368795,1.17645005E9,,,,0,,1,,,,,,,X,2997316600
Raw,1638904975449,3501506000000,18,,-1322936691943239282,-0.10139274597167969,23.96251329628285,29.373173060403,9.533343888083966,160,26,0.0,81935,242593376855193,7,28.6,-95.43498229980469,0.07110000401735306,27,-12010.653106343754,0.25482803839368795,1.17645005E9,,,,0,,1,,,,,,,X,2997316600
Raw,1638904975449,3501506000000,18,,-1322936691943239282,-0.10139274597167969,23.96251329628285,29.373173060403,9.533343888083966,160,1,0.0,81935,242593358061190,9,25.8,370.84759521484375,0.08740000426769257,25,43076.766690811804,0.25482803839368795,1.17645005E9,,,,0,,6,,,,,,,X,2997316600
Raw,1638904975449,3501506000000,18,,-1322936691943239282,-0.10139274597167969,23.96251329628285,29.373173060403,9.533343888083966,160,4,0.0,81935,242593360299411,10,25.2,313.9609069824219,0.8014999628067017,16,0.0,0.0,1.17645005E9,,,,0,,6,,,,,,,X,2997316600
Raw,1638904975449,3501506000000,18,,-1322936691943239282,-0.10139274597167969,23.96251329628285,29.373173060403,9.533343888083966,160,5,0.0,81935,242593364686278,3,37.6,-280.0823974609375,0.047600001096725464,25,-32877.48829179343,0.005300423213018197,1.17645005E9,,,,0,,6,,,,,,,X,2997316600
Raw,1638904975449,3501506000000,18,,-1322936691943239282,-0.10139274597167969,23.96251329628285,29.373173060403,9.533343888083966,160,9,0.0,81935,242593375479805,3,38.4,21.57201385498047,0.06300000101327896,25,2414.6690273609834,0.004816249813242585,1.17645005E9,,,,0,,6,,,,,,,X,2997316600
Raw,1638904975449,3501506000000,18,,-1322936691943239282,-0.10139274597167969,23.96251329628285,29.373173060403,9.533343888083966,160,24,0.0,81935,242593363052732,3,37.7,-509.8746643066406,0.04500000178813934,25,-60064.678407937194,0.004816249813242585,1.17645005E9,,,,0,,6,,,,,,,X,2997316600
Raw,1638904975449,3501506000000,18,,-1322936691943239282,-0.10139274597167969,23.96251329628285,29.373173060403,9.533343888083966,160,31,0.0,81935,242593367030894,3,36.9,-112.71613311767578,0.05210000276565552,25,-13823.541593609083,0.005300423213018197,1.17645005E9,,,,0,,6,,,,,,,X,2997316600
Raw,1638904975449,3501506000000,18,,-1322936691943239282,-0.10139274597167969,23.96251329628285,29.373173060403,9.533343888083966,160,36,0.0,81935,242593361291624,7,29.1,469.9246520996094,0.04859999939799309,25,54911.24531781983,0.25482803839368795,1.17645005E9,,,,0,,6,,,,,,,X,2997316600
Raw,1638904976449,3502506000000,18,,-1322936691943239255,-0.5177211761474609,24.030912754824385,28.893842636433185,9.525333840250438,160,1,0.0,16399,242594372771408,6,41.9,581.0230102539062,0.03830000385642052,25,69891.0591414458,9.324389888310735E-4,1.57542003E9,,,,0,,1,,,,,,,C,3995569877
Raw,1638904976449,3502506000000,18,,-1322936691943239255,-0.5177211761474609,24.030912754824385,28.893842636433185,9.525333840250438,160,3,0.0,16399,242594381438074,10,37.8,-146.4300079345703,0.023900002241134644,25,-18361.985601091368,0.0015223494237726067,1.57542003E9,,,,0,,1,,,,,,,C,3995569877
Raw,1638904976449,3502506000000,18,,-1322936691943239255,-0.5177211761474609,24.030912754824385,28.893842636433185,9.525333840250438,160,4,0.0,16399,242594376729092,10,37.4,-285.103759765625,0.04639999940991402,25,-34504.5508167537,0.0015223494237726067,1.57542003E9,,,,0,,1,,,,,,,C,3995569877
Raw,1638904976449,3502506000000,18,,-1322936691943239255,-0.5177211761474609,24.030912754824385,28.893842636433185,9.525333840250438,160,9,0.0,16399,242594367697350,13,34.6,-471.3872375488281,0.03539999946951866,25,-56763.36939282817,0.002074201012354331,1.57542003E9,,,,0,,1,,,,,,,C,3995569877
Raw,1638904976449,3502506000000,18,,-1322936691943239255,-0.5177211761474609,24.030912754824385,28.893842636433185,9.525333840250438,160,16,0.0,16399,242594373369489,7,41.2,-579.6387939453125,0.04020000249147415,25,-70389.94029946087,0.0010085564157135064,1.57542003E9,,,,0,,1,,,,,,,C,3995569877
Raw,1638904976449,3502506000000,18,,-1322936691943239255,-0.5177211761474609,24.030912754824385,28.893842636433185,9.525333840250438,160,21,0.0,16399,242594369108437,7,40.6,525.96240234375,0.03420000150799751,25,63518.916686905235,0.0010085564157135064,1.57542003E9,,,,0,,1,,,,,,,C,3995569877
Raw,1638904976449,3502506000000,18,,-1322936691943239255,-0.5177211761474609,24.030912754824385,28.893842636433185,9.525333840250438,160,26,0.0,16399,242594376847659,11,36.4,-95.28795623779297,0.047200001776218414,25,-12336.575395229442,0.001655554942969963,1.57542003E9,,,,0,,1,,,,,,,C,3995569877
Raw,1638904976449,3502506000000,18,,-1322936691943239255,-0.5177211761474609,24.030912754824385,28.893842636433185,9.525333840250438,160,31,0.0,16399,242594372954990,27,27.7,629.3677978515625,0.684499979019165,16,0.0,0.0,1.57542003E9,,,,0,,1,,,,,,,C,3995569877
Raw,1638904976449,3502506000000,18,,-1322936691943239255,-0.5177211761474609,24.030912754824385,28.893842636433185,9.525333840250438,160,2,0.0,49359,80576383315198,24,29.2,-35.135101318359375,0.09700000286102295,25,-4658.267586649635,0.1873995655581228,1.59975002E9,,,,0,,3,,,,,,,C,3995569877
Raw,1638904976449,3502506000000,18,,-1322936691943239255,-0.5177211761474609,24.030912754824385,28.893842636433185,9.525333840250438,160,18,0.0,49359,80576371947638,19,31.2,411.7904968261719,0.05869999900460243,25,48448.80110064384,0.0031846731363860867,1.60031245E9,,,,0,,3,,,,,,,C,3995569877
Raw,1638904976449,3502506000000,18,,-1322936691943239255,-0.5177211761474609,24.030912754824385,28.893842636433185,9.525333840250438,160,13,0.0,49359,80576381793220,27,28.7,-546.1105346679688,0.6180000305175781,16,0.0,0.0,1.60087501E9,,,,0,,3,,,,,,,C,3995569877
Raw,1638904976449,3502506000000,18,,-1322936691943239255,-0.5177211761474609,24.030912754824385,28.893842636433185,9.525333840250438,160,12,0.0,49359,80576383716829,46,24.1,212.16549682617188,0.8510000109672546,16,0.0,0.0,1.60143744E9,,,,0,,3,,,,,,,C,3995569877
Raw,1638904976449,3502506000000,18,,-1322936691943239255,-0.5177211761474609,24.030912754824385,28.893842636433185,9.525333840250438,160,1,0.0,49359,80576373023573,17,32.2,491.58087158203125,0.05180000141263008,25,57444.862524890224,0.002955716504244618,1.60256256E9,,,,0,,3,,,,,,,C,3995569877
Raw,1638904976449,3502506000000,18,,-1322936691943239255,-0.5177211761474609,24.030912754824385,28.893842636433185,9.525333840250438,160,3,0.0,49359,80576377407582,13,35.6,-492.82977294921875,0.05040000379085541,25,-59394.79080047097,0.002036211542260784,1.60481254E9,,,,0,,3,,,,,,,C,3995569877
Raw,1638904976449,3502506000000,18,,-1322936691943239255,-0.5177211761474609,24.030912754824385,28.893842636433185,9.525333840250438,160,4,0.0,23567,242594360292019,53,23.9,313.6039733886719,0.9555000066757202,16,0.0,0.0,1.57542003E9,,,,0,,6,,,,,,,C,3995569877
Raw,1638904976449,3502506000000,18,,-1322936691943239255,-0.5177211761474609,24.030912754824385,28.893842636433185,9.525333840250438,160,5,0.0,23567,242594364680842,8,41.4,-280.1270446777344,0.03020000085234642,25,-33701.695735215995,0.0025499350854412276,1.57542003E9,,,,0,,6,,,,,,,C,3995569877
Raw,1638904976449,3502506000000,18,,-1322936691943239255,-0.5177211761474609,24.030912754824385,28.893842636433185,9.525333840250438,160,9,0.0,23567,242594375473328,27,29.0,21.512699127197266,0.6200000047683716,16,0.0,0.0,1.57542003E9,,,,0,,6,,,,,,,C,3995569877
Raw,1638904976449,3502506000000,18,,-1322936691943239255,-0.5177211761474609,24.030912754824385,28.893842636433185,9.525333840250438,160,24,0.0,23567,242594363048083,19,32.2,-509.8853759765625,0.08570000529289246,25,-61474.20531222913,0.007212130206821385,1.57542003E9,,,,0,,6,,,,,,,C,3995569877
Raw,1638904976449,3502506000000,18,,-1322936691943239255,-0.5177211761474609,24.030912754824385,28.893842636433185,9.525333840250438,160,31,0.0,23567,242594367024912,61,23.3,-112.68240356445312,0.9299999475479126,16,0.0,0.0,1.57542003E9,,,,0,,6,,,,,,,C,3995569877
Raw,1638904976449,3502506000000,18,,-1322936691943239255,-0.5177211761474609,24.030912754824385,28.893842636433185,9.525333840250438,160,36,0.0,23567,242594361283700,11,38.3,469.9395446777344,0.06370000541210175,25,56115.46538451589,0.003596550258902148,1.57542003E9,,,,0,,6,,,,,,,C,3995569877
Raw,1638904976449,3502506000000,18,,-1322936691943239255,-0.5177211761474609,24.030912754824385,28.893842636433185,9.525333840250438,160,1,0.0,81935,242594372779249,4,34.5,581.0317993164062,0.06220000237226486,25,68483.78940726446,0.0032108332879374254,1.17645005E9,,,,0,,1,,,,,,,X,3995569877
Raw,1638904976449,3502506000000,18,,-1322936691943239255,-0.5177211761474609,24.030912754824385,28.893842636433185,9.525333840250438,160,3,0.0,81935,242594381445916,3,37.3,-146.4440460205078,0.04309999942779541,25,-18033.072000118493,0.0024208662868967453,1.17645005E9,,,,0,,1,,,,,,,X,3995569877
Raw,1638904976449,3502506000000,18,,-1322936691943239255,-0.5177211761474609,24.030912754824385,28.893842636433185,9.525333840250438,160,4,0.0,81935,242594376736943,6,30.9,-285.1231384277344,0.08110000193119049,25,-33913.9921885404,0.007288081858568245,1.17645005E9,,,,0,,1,,,,,,,X,3995569877
Raw,1638904976449,3502506000000,18,,-1322936691943239255,-0.5177211761474609,24.030912754824385,28.893842636433185,9.525333840250438,160,9,0.0,81935,242594367705214,6,29.5,-471.3963317871094,0.07999999821186066,25,-55794.489434590774,0.25482803839368795,1.17645005E9,,,,0,,1,,,,,,,X,3995569877
Raw,1638904976449,3502506000000,18,,-1322936691943239255,-0.5177211761474609,24.030912754824385,28.893842636433185,9.525333840250438,160,26,0.0,81935,242594376855516,7,28.8,-95.2703628540039,0.07110000401735306,25,-12105.931633066619,0.25482803839368795,1.17645005E9,,,,0,,1,,,,,,,X,3995569877
Raw,1638904976449,3502506000000,18,,-1322936691943239255,-0.5177211761474609,24.030912754824385,28.893842636433185,9.525333840250438,160,1,0.0,81935,242594358059945,9,25.9,370.8915710449219,0.08740000426769257,25,43447.64738183537,0.25482803839368795,1.17645005E9,,,,0,,6,,,,,,,X,3995569877
Raw,1638904976449,3502506000000,18,,-1322936691943239255,-0.5177211761474609,24.030912754824385,28.893842636433185,9.525333840250438,160,4,0.0,81935,242594360298366,9,25.9,313.7847595214844,0.06040000170469284,27,37058.63072270108,0.25482803839368795,1.17645005E9,,,,0,,6,,,,,,,X,3995569877
Raw,1638904976449,3502506000000,18,,-1322936691943239255,-0.5177211761474609,24.030912754824385,28.893842636433185,9.525333840250438,160,5,0.0,81935,242594364687211,3,37.4,-280.1181640625,0.047600001096725464,25,-33157.55353992086,0.005300423213018197,1.17645005E9,,,,0,,6,,,,,,,X,3995569877
Raw,1638904976449,3502506000000,18,,-1322936691943239255,-0.5177211761474609,24.030912754824385,28.893842636433185,9.525333840250438,160,9,0.0,81935,242594375479733,3,38.3,21.548879623413086,0.06300000101327896,25,2436.257038857462,0.004816249813242585,1.17645005E9,,,,0,,6,,,,,,,X,3995569877
Raw,1638904976449,3502506000000,18,,-1322936691943239255,-0.5177211761474609,24.030912754824385,28.893842636433185,9.525333840250438,160,24,0.0,81935,242594363054433,3,37.8,-509.8560485839844,0.04500000178813934,25,-60574.50789914026,0.004816249813242585,1.17645005E9,,,,0,,6,,,,,,,X,3995569877
Raw,1638904976449,3502506000000,18,,-1322936691943239255,-0.5177211761474609,24.030912754824385,28.893842636433185,9.525333840250438,160,31,0.0,81935,242594367031272,3,37.5,-112.65912628173828,0.05210000276565552,25,-13936.205175428808,0.005300423213018197,1.17645005E9,,,,0,,6,,,,,,,X,3995569877
Raw,1638904976449,3502506000000,18,,-1322936691943239255,-0.5177211761474609,24.030912754824385,28.893842636433185,9.525333840250438,160,36,0.0,81935,242594361290049,8,27.5,469.9432678222656,0.053199999034404755,25,55381.22010701869,0.25482803839368795,1.17645005E9,,,,0,,6,,,,,,,X,3995569877
Raw,1638904977449,3503506000000,18,,-1322936691943239224,-0.8958349227905273,23.421776859322563,28.796204670525928,9.533057587724548,160,1,0.0,16399,242595372769472,7,41.1,581.3659057617188,0.038700003176927567,25,70472.19347180508,0.0010085564157135064,1.57542003E9,,,,0,,1,,,,,,,C,5003272685
Raw,1638904977449,3503506000000,18,,-1322936691943239224,-0.8958349227905273,23.421776859322563,28.796204670525928,9.533057587724548,160,3,0.0,16399,242595381438561,10,38.1,-146.01681518554688,0.023900002241134644,25,-18508.26011506939,0.0015223494237726067,1.57542003E9,,,,0,,1,,,,,,,C,5003272685
Raw,1638904977449,3503506000000,18,,-1322936691943239224,-0.8958349227905273,23.421776859322563,28.796204670525928,9.533057587724548,160,4,0.0,16399,242595376730051,10,37.7,-284.7684326171875,0.04639999940991402,25,-34789.54034383836,0.0015223494237726067,1.57542003E9,,,,0,,1,,,,,,,C,5003272685
Raw,1638904977449,3503506000000,18,,-1322936691943239224,-0.8958349227905273,23.421776859322563,28.796204670525928,9.533057587724548,160,9,0.0,16399,242595367698927,14,33.6,-471.0993347167969,0.0364999994635582,25,-57234.673352260084,0.002397700231676362,1.57542003E9,,,,0,,1,,,,,,,C,5003272685
Raw,1638904977449,3503506000000,18,,-1322936691943239224,-0.8958349227905273,23.421776859322563,28.796204670525928,9.533057587724548,160,16,0.0,16399,242595373371432,8,40.0,-579.2989501953125,0.04070000350475311,25,-70969.46499584093,0.001160791358090767,1.57542003E9,,,,0,,1,,,,,,,C,5003272685
Raw,1638904977449,3503506000000,18,,-1322936691943239224,-0.8958349227905273,23.421776859322563,28.796204670525928,9.533057587724548,160,21,0.0,16399,242595369106701,7,40.7,526.2622680664062,0.03420000150799751,25,64044.971324163715,0.0010085564157135064,1.57542003E9,,,,0,,1,,,,,,,C,5003272685
Raw,1638904977449,3503506000000,18,,-1322936691943239224,-0.8958349227905273,23.421776859322563,28.796204670525928,9.533057587724548,160,26,0.0,16399,242595376848004,13,35.1,-94.86161804199219,0.048900000751018524,25,-12431.703619762338,0.002074201012354331,1.57542003E9,,,,0,,1,,,,,,,C,5003272685
Raw,1638904977449,3503506000000,18,,-1322936691943239224,-0.8958349227905273,23.421776859322563,28.796204670525928,9.533057587724548,160,31,0.0,16399,242595372952865,35,26.0,629.85302734375,0.7444999814033508,16,0.0,0.0,1.57542003E9,,,,0,,1,,,,,,,C,5003272685
Raw,1638904977449,3503506000000,18,,-1322936691943239224,-0.8958349227905273,23.421776859322563,28.796204670525928,9.533057587724548,160,2,0.0,49359,80577383315385,19,31.5,-34.77276611328125,0.04670000076293945,25,-4693.270915049604,0.003185792787621298,1.59975002E9,,,,0,,3,,,,,,,C,5003272685
Raw,1638904977449,3503506000000,18,,-1322936691943239224,-0.8958349227905273,23.421776859322563,28.796204670525928,9.533057587724548,160,18,0.0,49359,80577371946317,21,30.6,412.1807861328125,0.0771000012755394,25,48860.72346500663,0.005357743897484537,1.60031245E9,,,,0,,3,,,,,,,C,5003272685
Raw,1638904977449,3503506000000,18,,-1322936691943239224,-0.8958349227905273,23.421776859322563,28.796204670525928,9.533057587724548,160,13,0.0,49359,80577381795064,27,28.3,-545.9326782226562,0.6180000305175781,16,0.0,0.0,1.60087501E9,,,,0,,3,,,,,,,C,5003272685
Raw,1638904977449,3503506000000,18,,-1322936691943239224,-0.8958349227905273,23.421776859322563,28.796204670525928,9.533057587724548,160,12,0.0,49359,80577383716202,61,22.0,211.05165100097656,1.0010000467300415,16,0.0,0.0,1.60143744E9,,,,0,,3,,,,,,,C,5003272685
Raw,1638904977449,3503506000000,18,,-1322936691943239224,-0.8958349227905273,23.421776859322563,28.796204670525928,9.533057587724548,160,1,0.0,49359,80577373021939,21,30.5,491.9225158691406,0.08009999990463257,21,57936.459483763116,0.005350221243369457,1.60256256E9,,,,0,,3,,,,,,,C,5003272685
Raw,1638904977449,3503506000000,18,,-1322936691943239224,-0.8958349227905273,23.421776859322563,28.796204670525928,9.533057587724548,160,3,0.0,49359,80577377409212,14,34.5,-492.5405578613281,0.05150000378489494,25,-59887.54462871417,0.002353785798744343,1.60481254E9,,,,0,,3,,,,,,,C,5003272685
Raw,1638904977449,3503506000000,18,,-1322936691943239224,-0.8958349227905273,23.421776859322563,28.796204670525928,9.533057587724548,160,4,0.0,23567,242595360290956,46,25.0,314.241455078125,0.8255000114440918,16,0.0,0.0,1.57542003E9,,,,0,,6,,,,,,,C,5003272685
Raw,1638904977449,3503506000000,18,,-1322936691943239224,-0.8958349227905273,23.421776859322563,28.796204670525928,9.533057587724548,160,5,0.0,23567,242595364681771,7,41.9,-279.8032531738281,0.02970000170171261,25,-33981.71651859795,0.0021883771969841777,1.57542003E9,,,,0,,6,,,,,,,C,5003272685
Raw,1638904977449,3503506000000,18,,-1322936691943239224,-0.8958349227905273,23.421776859322563,28.796204670525928,9.533057587724548,160,9,0.0,23567,242595375473273,19,32.0,21.869333267211914,0.08570000529289246,27,190.49637098742443,0.007212130206821385,1.57542003E9,,,,0,,6,,,,,,,C,5003272685
Raw,1638904977449,3503506000000,18,,-1322936691943239224,-0.8958349227905273,23.421776859322563,28.796204670525928,9.533057587724548,160,24,0.0,23567,242595363049770,16,34.1,-509.5520935058594,0.07440000027418137,25,-61983.997157594844,0.006146485344343376,1.57542003E9,,,,0,,6,,,,,,,C,5003272685
Raw,1638904977449,3503506000000,18,,-1322936691943239224,-0.8958349227905273,23.421776859322563,28.796204670525928,9.533057587724548,160,31,0.0,23567,242595367025256,31,28.2,-112.13054656982422,0.6299999952316284,16,0.0,0.0,1.57542003E9,,,,0,,6,,,,,,,C,5003272685
Raw,1638904977449,3503506000000,18,,-1322936691943239224,-0.8958349227905273,23.421776859322563,28.796204670525928,9.533057587724548,160,36,0.0,23567,242595361282134,9,40.0,470.2734375,0.062300004065036774,25,56585.51366300749,0.0028924638165555576,1.57542003E9,,,,0,,6,,,,,,,C,5003272685
Raw,1638904977449,3503506000000,18,,-1322936691943239224,-0.8958349227905273,23.421776859322563,28.796204670525928,9.533057587724548,160,1,0.0,81935,242595372777312,4,34.9,581.3547973632812,0.06220000237226486,25,69064.92023243003,0.0032108332879374254,1.17645005E9,,,,0,,1,,,,,,,X,5003272685
Raw,1638904977449,3503506000000,18,,-1322936691943239224,-0.8958349227905273,23.421776859322563,28.796204670525928,9.533057587724548,160,3,0.0,81935,242595381446403,3,37.8,-146.04452514648438,0.041999999433755875,25,-18179.349988592046,0.0022170039651624013,1.17645005E9,,,,0,,1,,,,,,,X,5003272685
Raw,1638904977449,3503506000000,18,,-1322936691943239224,-0.8958349227905273,23.421776859322563,28.796204670525928,9.533057587724548,160,4,0.0,81935,242595376737891,5,32.8,-284.7737731933594,0.07210000604391098,25,-34199.00957590387,0.0040262828122019055,1.17645005E9,,,,0,,1,,,,,,,X,5003272685
Raw,1638904977449,3503506000000,18,,-1322936691943239224,-0.8958349227905273,23.421776859322563,28.796204670525928,9.533057587724548,160,9,0.0,81935,242595367706783,7,29.0,-471.1158142089844,0.10060000419616699,25,-56265.79398813035,0.25482803839368795,1.17645005E9,,,,0,,1,,,,,,,X,5003272685
Raw,1638904977449,3503506000000,18,,-1322936691943239224,-0.8958349227905273,23.421776859322563,28.796204670525928,9.533057587724548,160,26,0.0,81935,242595376855840,7,28.4,-94.8747329711914,0.07110000401735306,25,-12201.071215779355,0.25482803839368795,1.17645005E9,,,,0,,1,,,,,,,X,5003272685
Raw,1638904977449,3503506000000,18,,-1322936691943239224,-0.8958349227905273,23.421776859322563,28.796204670525928,9.533057587724548,160,1,0.0,81935,242595358058705,8,26.8,371.238037109375,0.0787000060081482,25,43818.66152917009,0.25482803839368795,1.17645005E9,,,,0,,6,,,,,,,X,5003272685
Raw,1638904977449,3503506000000,18,,-1322936691943239224,-0.8958349227905273,23.421776859322563,28.796204670525928,9.533057587724548,160,4,0.0,81935,242595360297317,11,23.9,314.1325378417969,0.16489998996257782,25,37372.5474089587,0.25482803839368795,1.17645005E9,,,,0,,6,,,,,,,X,5003272685
Raw,1638904977449,3503506000000,18,,-1322936691943239224,-0.8958349227905273,23.421776859322563,28.796204670525928,9.533057587724548,160,5,0.0,81935,242595364688146,3,37.6,-279.7897644042969,0.047600001096725464,25,-33437.570875320045,0.005300423213018197,1.17645005E9,,,,0,,6,,,,,,,X,5003272685
Raw,1638904977449,3503506000000,18,,-1322936691943239224,-0.8958349227905273,23.421776859322563,28.796204670525928,9.533057587724548,160,9,0.0,81935,242595375479660,3,37.8,21.878568649291992,0.06300000101327896,25,2457.9030303400614,0.004816249813242585,1.17645005E9,,,,0,,6,,,,,,,X,5003272685
Raw,1638904977449,3503506000000,18,,-1322936691943239224,-0.8958349227905273,23.421776859322563,28.796204670525928,9.533057587724548,160,24,0.0,81935,242595363056134,3,36.6,-509.5335693359375,0.047300003468990326,25,-61084.26316279744,0.006064907453507972,1.17645005E9,,,,0,,6,,,,,,,X,5003272685
Raw,1638904977449,3503506000000,18,,-1322936691943239224,-0.8958349227905273,23.421776859322563,28.796204670525928,9.533057587724548,160,31,0.0,81935,242595367031647,3,36.9,-112.29023742675781,0.05210000276565552,25,-14048.729326671915,0.005300423213018197,1.17645005E9,,,,0,,6,,,,,,,X,5003272685
Raw,1638904977449,3503506000000,18,,-1322936691943239224,-0.8958349227905273,23.421776859322563,28.796204670525928,9.533057587724548,160,36,0.0,81935,242595361288483,12,23.1,470.489013671875,0.9329999685287476,16,0.0,0.0,1.17645005E9,,,,0,,6,,,,,,,X,5003272685
Raw,1638904978449,3504506000000,18,,-1322936691943239198,-0.729395866394043,23.238604626385495,29.731105769748876,9.585165843696391,160,1,0.0,16399,242596372767532,6,41.9,581.2739868164062,0.03830000385642052,25,71053.52488349647,9.324389888310735E-4,1.57542003E9,,,,0,,1,,,,,,,C,5997733930
Raw,1638904978449,3504506000000,18,,-1322936691943239198,-0.729395866394043,23.238604626385495,29.731105769748876,9.585165843696391,160,3,0.0,16399,242596381439056,9,38.8,-146.0496063232422,0.02330000139772892,25,-18654.287268515644,0.0013320557236479321,1.57542003E9,,,,0,,1,,,,,,,C,5997733930
Raw,1638904978449,3504506000000,18,,-1322936691943239198,-0.729395866394043,23.238604626385495,29.731105769748876,9.585165843696391,160,4,0.0,16399,242596376730994,11,37.0,-284.8963928222656,0.047200001776218414,25,-35074.361687067496,0.001655554942969963,1.57542003E9,,,,0,,1,,,,,,,C,5997733930
Raw,1638904978449,3504506000000,18,,-1322936691943239198,-0.729395866394043,23.238604626385495,29.731105769748876,9.585165843696391,160,9,0.0,16399,242596367700483,14,33.9,-471.2135009765625,0.0364999994635582,25,-57705.82174199958,0.002397700231676362,1.57542003E9,,,,0,,1,,,,,,,C,5997733930
Raw,1638904978449,3504506000000,18,,-1322936691943239198,-0.729395866394043,23.238604626385495,29.731105769748876,9.585165843696391,160,16,0.0,16399,242596373373351,8,40.1,-579.3641967773438,0.04070000350475311,25,-71548.78087110953,0.001160791358090767,1.57542003E9,,,,0,,1,,,,,,,C,5997733930
Raw,1638904978449,3504506000000,18,,-1322936691943239198,-0.729395866394043,23.238604626385495,29.731105769748876,9.585165843696391,160,21,0.0,16399,242596369104917,7,40.9,526.1280517578125,0.03420000150799751,25,64571.16974177452,0.0010085564157135064,1.57542003E9,,,,0,,1,,,,,,,C,5997733930
Raw,1638904978449,3504506000000,18,,-1322936691943239198,-0.729395866394043,23.238604626385495,29.731105769748876,9.585165843696391,160,26,0.0,16399,242596376848310,12,35.7,-94.89225006103516,0.04800000041723251,25,-12526.569054102341,0.001807789796734829,1.57542003E9,,,,0,,1,,,,,,,C,5997733930
Raw,1638904978449,3504506000000,18,,-1322936691943239198,-0.729395866394043,23.238604626385495,29.731105769748876,9.585165843696391,160,31,0.0,16399,242596372950809,40,24.6,628.6446533203125,0.8644999861717224,16,0.0,0.0,1.57542003E9,,,,0,,1,,,,,,,C,5997733930
Raw,1638904978449,3504506000000,18,,-1322936691943239198,-0.729395866394043,23.238604626385495,29.731105769748876,9.585165843696391,160,2,0.0,49359,80578383315581,24,29.8,-34.81038284301758,0.09700000286102295,25,-4728.046875330676,0.1873995655581228,1.59975002E9,,,,0,,3,,,,,,,C,5997733930
Raw,1638904978449,3504506000000,18,,-1322936691943239198,-0.729395866394043,23.238604626385495,29.731105769748876,9.585165843696391,160,18,0.0,49359,80578371944917,19,31.5,412.1636047363281,0.05869999900460243,25,49272.91704012741,0.0031846731363860867,1.60031245E9,,,,0,,3,,,,,,,C,5997733930
Raw,1638904978449,3504506000000,18,,-1322936691943239198,-0.729395866394043,23.238604626385495,29.731105769748876,9.585165843696391,160,13,0.0,49359,80578381796960,27,28.9,-546.0731201171875,0.6180000305175781,16,0.0,0.0,1.60087501E9,,,,0,,3,,,,,,,C,5997733930
Raw,1638904978449,3504506000000,18,,-1322936691943239198,-0.729395866394043,23.238604626385495,29.731105769748876,9.585165843696391,160,1,0.0,49359,80578373020180,27,28.3,492.080078125,0.6360000371932983,16,0.0,0.0,1.60256256E9,,,,0,,3,,,,,,,C,5997733930
